header: 
  seq: 9462
  stamp: 
    secs: 661
    nsecs: 926000000
  frame_id: "world"
child_frame_id: "red/base_link"
pose: 
  pose: 
    position: 
      x: -1.05749716516
      y: 1.09028181573
      z: 2.20800675926
    orientation: 
      x: -2.06417609634e-05
      y: 0.000389483269807
      z: -0.717335048827
      w: 0.696728265252
  covariance: [0.0, 0.0, 0.0, 0.0, 0.0, 0.0, 0.0, 0.0, 0.0, 0.0, 0.0, 0.0, 0.0, 0.0, 0.0, 0.0, 0.0, 0.0, 0.0, 0.0, 0.0, 0.0, 0.0, 0.0, 0.0, 0.0, 0.0, 0.0, 0.0, 0.0, 0.0, 0.0, 0.0, 0.0, 0.0, 0.0]
twist: 
  twist: 
    linear: 
      x: 0.00160931477985
      y: 0.00940416744061
      z: 0.00109648405065
    angular: 
      x: -0.00159186177635
      y: 0.0022231044584
      z: 9.1292537426e-05
  covariance: [0.0, 0.0, 0.0, 0.0, 0.0, 0.0, 0.0, 0.0, 0.0, 0.0, 0.0, 0.0, 0.0, 0.0, 0.0, 0.0, 0.0, 0.0, 0.0, 0.0, 0.0, 0.0, 0.0, 0.0, 0.0, 0.0, 0.0, 0.0, 0.0, 0.0, 0.0, 0.0, 0.0, 0.0, 0.0, 0.0]
---
header: 
  seq: 9463
  stamp: 
    secs: 661
    nsecs: 946000000
  frame_id: "world"
child_frame_id: "red/base_link"
pose: 
  pose: 
    position: 
      x: -1.05730890968
      y: 1.09024303015
      z: 2.20802838345
    orientation: 
      x: -3.23011814536e-05
      y: 0.00041550426446
      z: -0.717334014386
      w: 0.696729314812
  covariance: [0.0, 0.0, 0.0, 0.0, 0.0, 0.0, 0.0, 0.0, 0.0, 0.0, 0.0, 0.0, 0.0, 0.0, 0.0, 0.0, 0.0, 0.0, 0.0, 0.0, 0.0, 0.0, 0.0, 0.0, 0.0, 0.0, 0.0, 0.0, 0.0, 0.0, 0.0, 0.0, 0.0, 0.0, 0.0, 0.0]
twist: 
  twist: 
    linear: 
      x: 0.00171361494126
      y: 0.00952120019256
      z: 0.00105849374106
    angular: 
      x: -0.00322865209866
      y: -0.000507540754035
      z: 0.000178831558611
  covariance: [0.0, 0.0, 0.0, 0.0, 0.0, 0.0, 0.0, 0.0, 0.0, 0.0, 0.0, 0.0, 0.0, 0.0, 0.0, 0.0, 0.0, 0.0, 0.0, 0.0, 0.0, 0.0, 0.0, 0.0, 0.0, 0.0, 0.0, 0.0, 0.0, 0.0, 0.0, 0.0, 0.0, 0.0, 0.0, 0.0]
---
header: 
  seq: 9464
  stamp: 
    secs: 661
    nsecs: 966000000
  frame_id: "world"
child_frame_id: "red/base_link"
pose: 
  pose: 
    position: 
      x: -1.05711823625
      y: 1.09020208683
      z: 2.20804826101
    orientation: 
      x: -5.81096927979e-05
      y: 0.000421034238424
      z: -0.71733270339
      w: 0.696730659582
  covariance: [0.0, 0.0, 0.0, 0.0, 0.0, 0.0, 0.0, 0.0, 0.0, 0.0, 0.0, 0.0, 0.0, 0.0, 0.0, 0.0, 0.0, 0.0, 0.0, 0.0, 0.0, 0.0, 0.0, 0.0, 0.0, 0.0, 0.0, 0.0, 0.0, 0.0, 0.0, 0.0, 0.0, 0.0, 0.0, 0.0]
twist: 
  twist: 
    linear: 
      x: 0.00181615156347
      y: 0.00965127932752
      z: 0.000946517548827
    angular: 
      x: -0.000710373625403
      y: -0.00194817638129
      z: 0.000188949329687
  covariance: [0.0, 0.0, 0.0, 0.0, 0.0, 0.0, 0.0, 0.0, 0.0, 0.0, 0.0, 0.0, 0.0, 0.0, 0.0, 0.0, 0.0, 0.0, 0.0, 0.0, 0.0, 0.0, 0.0, 0.0, 0.0, 0.0, 0.0, 0.0, 0.0, 0.0, 0.0, 0.0, 0.0, 0.0, 0.0, 0.0]
---
header: 
  seq: 9465
  stamp: 
    secs: 661
    nsecs: 986000000
  frame_id: "world"
child_frame_id: "red/base_link"
pose: 
  pose: 
    position: 
      x: -1.05692497376
      y: 1.09015910334
      z: 2.20806676762
    orientation: 
      x: -6.28345210278e-05
      y: 0.000403551599772
      z: -0.717331128792
      w: 0.696732290672
  covariance: [0.0, 0.0, 0.0, 0.0, 0.0, 0.0, 0.0, 0.0, 0.0, 0.0, 0.0, 0.0, 0.0, 0.0, 0.0, 0.0, 0.0, 0.0, 0.0, 0.0, 0.0, 0.0, 0.0, 0.0, 0.0, 0.0, 0.0, 0.0, 0.0, 0.0, 0.0, 0.0, 0.0, 0.0, 0.0, 0.0]
twist: 
  twist: 
    linear: 
      x: 0.00190883896311
      y: 0.00977465653952
      z: 0.000939508239004
    angular: 
      x: 0.00227847430019
      y: -0.000910802862397
      z: 0.000275717921888
  covariance: [0.0, 0.0, 0.0, 0.0, 0.0, 0.0, 0.0, 0.0, 0.0, 0.0, 0.0, 0.0, 0.0, 0.0, 0.0, 0.0, 0.0, 0.0, 0.0, 0.0, 0.0, 0.0, 0.0, 0.0, 0.0, 0.0, 0.0, 0.0, 0.0, 0.0, 0.0, 0.0, 0.0, 0.0, 0.0, 0.0]
---
header: 
  seq: 9466
  stamp: 
    secs: 662
    nsecs:   6000000
  frame_id: "world"
child_frame_id: "red/base_link"
pose: 
  pose: 
    position: 
      x: -1.05673093584
      y: 1.09011460363
      z: 2.20808642866
    orientation: 
      x: -4.13628858953e-05
      y: 0.000378419753233
      z: -0.717328875552
      w: 0.696734626229
  covariance: [0.0, 0.0, 0.0, 0.0, 0.0, 0.0, 0.0, 0.0, 0.0, 0.0, 0.0, 0.0, 0.0, 0.0, 0.0, 0.0, 0.0, 0.0, 0.0, 0.0, 0.0, 0.0, 0.0, 0.0, 0.0, 0.0, 0.0, 0.0, 0.0, 0.0, 0.0, 0.0, 0.0, 0.0, 0.0, 0.0]
twist: 
  twist: 
    linear: 
      x: 0.00197080240571
      y: 0.00975247925966
      z: 0.00106895744782
    angular: 
      x: 0.00385968863864
      y: 0.000173753865244
      z: 0.000352589800663
  covariance: [0.0, 0.0, 0.0, 0.0, 0.0, 0.0, 0.0, 0.0, 0.0, 0.0, 0.0, 0.0, 0.0, 0.0, 0.0, 0.0, 0.0, 0.0, 0.0, 0.0, 0.0, 0.0, 0.0, 0.0, 0.0, 0.0, 0.0, 0.0, 0.0, 0.0, 0.0, 0.0, 0.0, 0.0, 0.0, 0.0]
---
header: 
  seq: 9467
  stamp: 
    secs: 662
    nsecs:  26000000
  frame_id: "world"
child_frame_id: "red/base_link"
pose: 
  pose: 
    position: 
      x: -1.05653757072
      y: 1.09006889275
      z: 2.20810952724
    orientation: 
      x: -1.53417258885e-05
      y: 0.000351681683547
      z: -0.717326185981
      w: 0.696737410357
  covariance: [0.0, 0.0, 0.0, 0.0, 0.0, 0.0, 0.0, 0.0, 0.0, 0.0, 0.0, 0.0, 0.0, 0.0, 0.0, 0.0, 0.0, 0.0, 0.0, 0.0, 0.0, 0.0, 0.0, 0.0, 0.0, 0.0, 0.0, 0.0, 0.0, 0.0, 0.0, 0.0, 0.0, 0.0, 0.0, 0.0]
twist: 
  twist: 
    linear: 
      x: 0.00203288662776
      y: 0.00971513368967
      z: 0.00122369481528
    angular: 
      x: 0.00319934528893
      y: -0.000510515696483
      z: 0.00044059544336
  covariance: [0.0, 0.0, 0.0, 0.0, 0.0, 0.0, 0.0, 0.0, 0.0, 0.0, 0.0, 0.0, 0.0, 0.0, 0.0, 0.0, 0.0, 0.0, 0.0, 0.0, 0.0, 0.0, 0.0, 0.0, 0.0, 0.0, 0.0, 0.0, 0.0, 0.0, 0.0, 0.0, 0.0, 0.0, 0.0, 0.0]
---
header: 
  seq: 9468
  stamp: 
    secs: 662
    nsecs:  46000000
  frame_id: "world"
child_frame_id: "red/base_link"
pose: 
  pose: 
    position: 
      x: -1.05634480392
      y: 1.09002190578
      z: 2.20813477998
    orientation: 
      x: -1.09117278295e-05
      y: 0.000325952953586
      z: -0.717322555526
      w: 0.696741160668
  covariance: [0.0, 0.0, 0.0, 0.0, 0.0, 0.0, 0.0, 0.0, 0.0, 0.0, 0.0, 0.0, 0.0, 0.0, 0.0, 0.0, 0.0, 0.0, 0.0, 0.0, 0.0, 0.0, 0.0, 0.0, 0.0, 0.0, 0.0, 0.0, 0.0, 0.0, 0.0, 0.0, 0.0, 0.0, 0.0, 0.0]
twist: 
  twist: 
    linear: 
      x: 0.00209850464124
      y: 0.00969426094574
      z: 0.00130673225926
    angular: 
      x: 0.00114169255703
      y: -0.00240417620642
      z: 0.000598613243117
  covariance: [0.0, 0.0, 0.0, 0.0, 0.0, 0.0, 0.0, 0.0, 0.0, 0.0, 0.0, 0.0, 0.0, 0.0, 0.0, 0.0, 0.0, 0.0, 0.0, 0.0, 0.0, 0.0, 0.0, 0.0, 0.0, 0.0, 0.0, 0.0, 0.0, 0.0, 0.0, 0.0, 0.0, 0.0, 0.0, 0.0]
---
header: 
  seq: 9469
  stamp: 
    secs: 662
    nsecs:  66000000
  frame_id: "world"
child_frame_id: "red/base_link"
pose: 
  pose: 
    position: 
      x: -1.05615265209
      y: 1.08997374455
      z: 2.20816255242
    orientation: 
      x: -2.84135090212e-05
      y: 0.000301491716306
      z: -0.717318072633
      w: 0.696745786475
  covariance: [0.0, 0.0, 0.0, 0.0, 0.0, 0.0, 0.0, 0.0, 0.0, 0.0, 0.0, 0.0, 0.0, 0.0, 0.0, 0.0, 0.0, 0.0, 0.0, 0.0, 0.0, 0.0, 0.0, 0.0, 0.0, 0.0, 0.0, 0.0, 0.0, 0.0, 0.0, 0.0, 0.0, 0.0, 0.0, 0.0]
twist: 
  twist: 
    linear: 
      x: 0.00214976985507
      y: 0.00964984475856
      z: 0.00149213272065
    angular: 
      x: 0.000212024111867
      y: -0.00325663254898
      z: 0.000667231112009
  covariance: [0.0, 0.0, 0.0, 0.0, 0.0, 0.0, 0.0, 0.0, 0.0, 0.0, 0.0, 0.0, 0.0, 0.0, 0.0, 0.0, 0.0, 0.0, 0.0, 0.0, 0.0, 0.0, 0.0, 0.0, 0.0, 0.0, 0.0, 0.0, 0.0, 0.0, 0.0, 0.0, 0.0, 0.0, 0.0, 0.0]
---
header: 
  seq: 9470
  stamp: 
    secs: 662
    nsecs:  86000000
  frame_id: "world"
child_frame_id: "red/base_link"
pose: 
  pose: 
    position: 
      x: -1.05596134394
      y: 1.08992471258
      z: 2.20819428299
    orientation: 
      x: -4.72938244267e-05
      y: 0.000277076143881
      z: -0.717313217716
      w: 0.696750793816
  covariance: [0.0, 0.0, 0.0, 0.0, 0.0, 0.0, 0.0, 0.0, 0.0, 0.0, 0.0, 0.0, 0.0, 0.0, 0.0, 0.0, 0.0, 0.0, 0.0, 0.0, 0.0, 0.0, 0.0, 0.0, 0.0, 0.0, 0.0, 0.0, 0.0, 0.0, 0.0, 0.0, 0.0, 0.0, 0.0, 0.0]
twist: 
  twist: 
    linear: 
      x: 0.00218946877922
      y: 0.00961530390674
      z: 0.00165672172672
    angular: 
      x: 0.00102251071386
      y: -0.00252324894241
      z: 0.00074068379957
  covariance: [0.0, 0.0, 0.0, 0.0, 0.0, 0.0, 0.0, 0.0, 0.0, 0.0, 0.0, 0.0, 0.0, 0.0, 0.0, 0.0, 0.0, 0.0, 0.0, 0.0, 0.0, 0.0, 0.0, 0.0, 0.0, 0.0, 0.0, 0.0, 0.0, 0.0, 0.0, 0.0, 0.0, 0.0, 0.0, 0.0]
---
header: 
  seq: 9471
  stamp: 
    secs: 662
    nsecs: 106000000
  frame_id: "world"
child_frame_id: "red/base_link"
pose: 
  pose: 
    position: 
      x: -1.05577060245
      y: 1.08987499284
      z: 2.20822821255
    orientation: 
      x: -4.37752806443e-05
      y: 0.000251279003747
      z: -0.717307591256
      w: 0.696756596286
  covariance: [0.0, 0.0, 0.0, 0.0, 0.0, 0.0, 0.0, 0.0, 0.0, 0.0, 0.0, 0.0, 0.0, 0.0, 0.0, 0.0, 0.0, 0.0, 0.0, 0.0, 0.0, 0.0, 0.0, 0.0, 0.0, 0.0, 0.0, 0.0, 0.0, 0.0, 0.0, 0.0, 0.0, 0.0, 0.0, 0.0]
twist: 
  twist: 
    linear: 
      x: 0.00222289423125
      y: 0.00959687912863
      z: 0.00173881544593
    angular: 
      x: 0.00312388272847
      y: -0.000604602168244
      z: 0.000871471788006
  covariance: [0.0, 0.0, 0.0, 0.0, 0.0, 0.0, 0.0, 0.0, 0.0, 0.0, 0.0, 0.0, 0.0, 0.0, 0.0, 0.0, 0.0, 0.0, 0.0, 0.0, 0.0, 0.0, 0.0, 0.0, 0.0, 0.0, 0.0, 0.0, 0.0, 0.0, 0.0, 0.0, 0.0, 0.0, 0.0, 0.0]
---
header: 
  seq: 9472
  stamp: 
    secs: 662
    nsecs: 126000000
  frame_id: "world"
child_frame_id: "red/base_link"
pose: 
  pose: 
    position: 
      x: -1.05558041755
      y: 1.08982467838
      z: 2.20826432095
    orientation: 
      x: -1.85833761824e-05
      y: 0.000226094930701
      z: -0.717301317587
      w: 0.696763064696
  covariance: [0.0, 0.0, 0.0, 0.0, 0.0, 0.0, 0.0, 0.0, 0.0, 0.0, 0.0, 0.0, 0.0, 0.0, 0.0, 0.0, 0.0, 0.0, 0.0, 0.0, 0.0, 0.0, 0.0, 0.0, 0.0, 0.0, 0.0, 0.0, 0.0, 0.0, 0.0, 0.0, 0.0, 0.0, 0.0, 0.0]
twist: 
  twist: 
    linear: 
      x: 0.00225348293383
      y: 0.00956628864832
      z: 0.00185596109676
    angular: 
      x: 0.00327499260009
      y: 0.000559006824536
      z: 0.000907155165777
  covariance: [0.0, 0.0, 0.0, 0.0, 0.0, 0.0, 0.0, 0.0, 0.0, 0.0, 0.0, 0.0, 0.0, 0.0, 0.0, 0.0, 0.0, 0.0, 0.0, 0.0, 0.0, 0.0, 0.0, 0.0, 0.0, 0.0, 0.0, 0.0, 0.0, 0.0, 0.0, 0.0, 0.0, 0.0, 0.0, 0.0]
---
header: 
  seq: 9473
  stamp: 
    secs: 662
    nsecs: 146000000
  frame_id: "world"
child_frame_id: "red/base_link"
pose: 
  pose: 
    position: 
      x: -1.05539057301
      y: 1.08977364396
      z: 2.20830084528
    orientation: 
      x: -2.02388143014e-06
      y: 0.000220456436935
      z: -0.717294974027
      w: 0.696769597234
  covariance: [0.0, 0.0, 0.0, 0.0, 0.0, 0.0, 0.0, 0.0, 0.0, 0.0, 0.0, 0.0, 0.0, 0.0, 0.0, 0.0, 0.0, 0.0, 0.0, 0.0, 0.0, 0.0, 0.0, 0.0, 0.0, 0.0, 0.0, 0.0, 0.0, 0.0, 0.0, 0.0, 0.0, 0.0, 0.0, 0.0]
twist: 
  twist: 
    linear: 
      x: 0.0022950056691
      y: 0.0095603893289
      z: 0.00178812876012
    angular: 
      x: -0.000313534512904
      y: 0.00091681683893
      z: 0.000916341755909
  covariance: [0.0, 0.0, 0.0, 0.0, 0.0, 0.0, 0.0, 0.0, 0.0, 0.0, 0.0, 0.0, 0.0, 0.0, 0.0, 0.0, 0.0, 0.0, 0.0, 0.0, 0.0, 0.0, 0.0, 0.0, 0.0, 0.0, 0.0, 0.0, 0.0, 0.0, 0.0, 0.0, 0.0, 0.0, 0.0, 0.0]
---
header: 
  seq: 9474
  stamp: 
    secs: 662
    nsecs: 166000000
  frame_id: "world"
child_frame_id: "red/base_link"
pose: 
  pose: 
    position: 
      x: -1.05520066337
      y: 1.08972168888
      z: 2.20833582893
    orientation: 
      x: -1.38710479606e-05
      y: 0.000241977004641
      z: -0.717288372382
      w: 0.696776386009
  covariance: [0.0, 0.0, 0.0, 0.0, 0.0, 0.0, 0.0, 0.0, 0.0, 0.0, 0.0, 0.0, 0.0, 0.0, 0.0, 0.0, 0.0, 0.0, 0.0, 0.0, 0.0, 0.0, 0.0, 0.0, 0.0, 0.0, 0.0, 0.0, 0.0, 0.0, 0.0, 0.0, 0.0, 0.0, 0.0, 0.0]
twist: 
  twist: 
    linear: 
      x: 0.00234234718285
      y: 0.00956494941319
      z: 0.00174711442353
    angular: 
      x: -0.00393529425057
      y: 0.000107128430753
      z: 0.000994749696814
  covariance: [0.0, 0.0, 0.0, 0.0, 0.0, 0.0, 0.0, 0.0, 0.0, 0.0, 0.0, 0.0, 0.0, 0.0, 0.0, 0.0, 0.0, 0.0, 0.0, 0.0, 0.0, 0.0, 0.0, 0.0, 0.0, 0.0, 0.0, 0.0, 0.0, 0.0, 0.0, 0.0, 0.0, 0.0, 0.0, 0.0]
---
header: 
  seq: 9475
  stamp: 
    secs: 662
    nsecs: 186000000
  frame_id: "world"
child_frame_id: "red/base_link"
pose: 
  pose: 
    position: 
      x: -1.05501102681
      y: 1.08966890642
      z: 2.20837107401
    orientation: 
      x: -4.55883370231e-05
      y: 0.000269111648282
      z: -0.717281250266
      w: 0.696783706409
  covariance: [0.0, 0.0, 0.0, 0.0, 0.0, 0.0, 0.0, 0.0, 0.0, 0.0, 0.0, 0.0, 0.0, 0.0, 0.0, 0.0, 0.0, 0.0, 0.0, 0.0, 0.0, 0.0, 0.0, 0.0, 0.0, 0.0, 0.0, 0.0, 0.0, 0.0, 0.0, 0.0, 0.0, 0.0, 0.0, 0.0]
twist: 
  twist: 
    linear: 
      x: 0.00238064802419
      y: 0.00954748562366
      z: 0.00175366720497
    angular: 
      x: -0.00337846394899
      y: -0.000679487856179
      z: 0.00102864268978
  covariance: [0.0, 0.0, 0.0, 0.0, 0.0, 0.0, 0.0, 0.0, 0.0, 0.0, 0.0, 0.0, 0.0, 0.0, 0.0, 0.0, 0.0, 0.0, 0.0, 0.0, 0.0, 0.0, 0.0, 0.0, 0.0, 0.0, 0.0, 0.0, 0.0, 0.0, 0.0, 0.0, 0.0, 0.0, 0.0, 0.0]
---
header: 
  seq: 9476
  stamp: 
    secs: 662
    nsecs: 206000000
  frame_id: "world"
child_frame_id: "red/base_link"
pose: 
  pose: 
    position: 
      x: -1.05482135149
      y: 1.08961533275
      z: 2.20840494579
    orientation: 
      x: -6.09864805517e-05
      y: 0.000273509896828
      z: -0.717274102661
      w: 0.696791061312
  covariance: [0.0, 0.0, 0.0, 0.0, 0.0, 0.0, 0.0, 0.0, 0.0, 0.0, 0.0, 0.0, 0.0, 0.0, 0.0, 0.0, 0.0, 0.0, 0.0, 0.0, 0.0, 0.0, 0.0, 0.0, 0.0, 0.0, 0.0, 0.0, 0.0, 0.0, 0.0, 0.0, 0.0, 0.0, 0.0, 0.0]
twist: 
  twist: 
    linear: 
      x: 0.002420568033
      y: 0.00956317145559
      z: 0.00164241743271
    angular: 
      x: 0.000608882625922
      y: -0.000843312037011
      z: 0.00102136046476
  covariance: [0.0, 0.0, 0.0, 0.0, 0.0, 0.0, 0.0, 0.0, 0.0, 0.0, 0.0, 0.0, 0.0, 0.0, 0.0, 0.0, 0.0, 0.0, 0.0, 0.0, 0.0, 0.0, 0.0, 0.0, 0.0, 0.0, 0.0, 0.0, 0.0, 0.0, 0.0, 0.0, 0.0, 0.0, 0.0, 0.0]
---
header: 
  seq: 9477
  stamp: 
    secs: 662
    nsecs: 226000000
  frame_id: "world"
child_frame_id: "red/base_link"
pose: 
  pose: 
    position: 
      x: -1.05463163856
      y: 1.08956106886
      z: 2.2084377077
    orientation: 
      x: -4.94781607851e-05
      y: 0.000254202950504
      z: -0.71726685406
      w: 0.696798531141
  covariance: [0.0, 0.0, 0.0, 0.0, 0.0, 0.0, 0.0, 0.0, 0.0, 0.0, 0.0, 0.0, 0.0, 0.0, 0.0, 0.0, 0.0, 0.0, 0.0, 0.0, 0.0, 0.0, 0.0, 0.0, 0.0, 0.0, 0.0, 0.0, 0.0, 0.0, 0.0, 0.0, 0.0, 0.0, 0.0, 0.0]
twist: 
  twist: 
    linear: 
      x: 0.00244967416485
      y: 0.00954771197173
      z: 0.00169065470737
    angular: 
      x: 0.00307829230809
      y: -0.000299194355226
      z: 0.00105451508421
  covariance: [0.0, 0.0, 0.0, 0.0, 0.0, 0.0, 0.0, 0.0, 0.0, 0.0, 0.0, 0.0, 0.0, 0.0, 0.0, 0.0, 0.0, 0.0, 0.0, 0.0, 0.0, 0.0, 0.0, 0.0, 0.0, 0.0, 0.0, 0.0, 0.0, 0.0, 0.0, 0.0, 0.0, 0.0, 0.0, 0.0]
---
header: 
  seq: 9478
  stamp: 
    secs: 662
    nsecs: 246000000
  frame_id: "world"
child_frame_id: "red/base_link"
pose: 
  pose: 
    position: 
      x: -1.05444249757
      y: 1.08950629391
      z: 2.20847272769
    orientation: 
      x: -2.73613946517e-05
      y: 0.000235263713441
      z: -0.717259717572
      w: 0.696805885057
  covariance: [0.0, 0.0, 0.0, 0.0, 0.0, 0.0, 0.0, 0.0, 0.0, 0.0, 0.0, 0.0, 0.0, 0.0, 0.0, 0.0, 0.0, 0.0, 0.0, 0.0, 0.0, 0.0, 0.0, 0.0, 0.0, 0.0, 0.0, 0.0, 0.0, 0.0, 0.0, 0.0, 0.0, 0.0, 0.0, 0.0]
twist: 
  twist: 
    linear: 
      x: 0.00247721926222
      y: 0.00952007001079
      z: 0.00180171610627
    angular: 
      x: 0.00232735682586
      y: 0.00100689862095
      z: 0.000977977691687
  covariance: [0.0, 0.0, 0.0, 0.0, 0.0, 0.0, 0.0, 0.0, 0.0, 0.0, 0.0, 0.0, 0.0, 0.0, 0.0, 0.0, 0.0, 0.0, 0.0, 0.0, 0.0, 0.0, 0.0, 0.0, 0.0, 0.0, 0.0, 0.0, 0.0, 0.0, 0.0, 0.0, 0.0, 0.0, 0.0, 0.0]
---
header: 
  seq: 9479
  stamp: 
    secs: 662
    nsecs: 266000000
  frame_id: "world"
child_frame_id: "red/base_link"
pose: 
  pose: 
    position: 
      x: -1.05425386347
      y: 1.08945091807
      z: 2.20850945917
    orientation: 
      x: -3.6917315655e-06
      y: 0.00024026030292
      z: -0.717253412965
      w: 0.696812373492
  covariance: [0.0, 0.0, 0.0, 0.0, 0.0, 0.0, 0.0, 0.0, 0.0, 0.0, 0.0, 0.0, 0.0, 0.0, 0.0, 0.0, 0.0, 0.0, 0.0, 0.0, 0.0, 0.0, 0.0, 0.0, 0.0, 0.0, 0.0, 0.0, 0.0, 0.0, 0.0, 0.0, 0.0, 0.0, 0.0, 0.0]
twist: 
  twist: 
    linear: 
      x: 0.00251058882021
      y: 0.0094929063197
      z: 0.00188145856279
    angular: 
      x: 0.000370130419185
      y: 0.0029399042724
      z: 0.000841603095347
  covariance: [0.0, 0.0, 0.0, 0.0, 0.0, 0.0, 0.0, 0.0, 0.0, 0.0, 0.0, 0.0, 0.0, 0.0, 0.0, 0.0, 0.0, 0.0, 0.0, 0.0, 0.0, 0.0, 0.0, 0.0, 0.0, 0.0, 0.0, 0.0, 0.0, 0.0, 0.0, 0.0, 0.0, 0.0, 0.0, 0.0]
---
header: 
  seq: 9480
  stamp: 
    secs: 662
    nsecs: 286000000
  frame_id: "world"
child_frame_id: "red/base_link"
pose: 
  pose: 
    position: 
      x: -1.05406596358
      y: 1.0893948293
      z: 2.20854893394
    orientation: 
      x: 1.99459545314e-05
      y: 0.000264482102934
      z: -0.717247774724
      w: 0.696818168035
  covariance: [0.0, 0.0, 0.0, 0.0, 0.0, 0.0, 0.0, 0.0, 0.0, 0.0, 0.0, 0.0, 0.0, 0.0, 0.0, 0.0, 0.0, 0.0, 0.0, 0.0, 0.0, 0.0, 0.0, 0.0, 0.0, 0.0, 0.0, 0.0, 0.0, 0.0, 0.0, 0.0, 0.0, 0.0, 0.0, 0.0]
twist: 
  twist: 
    linear: 
      x: 0.00255000924267
      y: 0.00944591097533
      z: 0.00207957283395
    angular: 
      x: -0.000335645759695
      y: 0.00361897089559
      z: 0.000791291360858
  covariance: [0.0, 0.0, 0.0, 0.0, 0.0, 0.0, 0.0, 0.0, 0.0, 0.0, 0.0, 0.0, 0.0, 0.0, 0.0, 0.0, 0.0, 0.0, 0.0, 0.0, 0.0, 0.0, 0.0, 0.0, 0.0, 0.0, 0.0, 0.0, 0.0, 0.0, 0.0, 0.0, 0.0, 0.0, 0.0, 0.0]
---
header: 
  seq: 9481
  stamp: 
    secs: 662
    nsecs: 306000000
  frame_id: "world"
child_frame_id: "red/base_link"
pose: 
  pose: 
    position: 
      x: -1.0538792113
      y: 1.08933789384
      z: 2.20859238814
    orientation: 
      x: 4.36691416469e-05
      y: 0.000288782021447
      z: -0.717242475832
      w: 0.696823611511
  covariance: [0.0, 0.0, 0.0, 0.0, 0.0, 0.0, 0.0, 0.0, 0.0, 0.0, 0.0, 0.0, 0.0, 0.0, 0.0, 0.0, 0.0, 0.0, 0.0, 0.0, 0.0, 0.0, 0.0, 0.0, 0.0, 0.0, 0.0, 0.0, 0.0, 0.0, 0.0, 0.0, 0.0, 0.0, 0.0, 0.0]
twist: 
  twist: 
    linear: 
      x: 0.00260085901313
      y: 0.00939174474714
      z: 0.00224036280456
    angular: 
      x: 0.000500499056973
      y: 0.00285108088055
      z: 0.000711608722778
  covariance: [0.0, 0.0, 0.0, 0.0, 0.0, 0.0, 0.0, 0.0, 0.0, 0.0, 0.0, 0.0, 0.0, 0.0, 0.0, 0.0, 0.0, 0.0, 0.0, 0.0, 0.0, 0.0, 0.0, 0.0, 0.0, 0.0, 0.0, 0.0, 0.0, 0.0, 0.0, 0.0, 0.0, 0.0, 0.0, 0.0]
---
header: 
  seq: 9482
  stamp: 
    secs: 662
    nsecs: 326000000
  frame_id: "world"
child_frame_id: "red/base_link"
pose: 
  pose: 
    position: 
      x: -1.05369335116
      y: 1.08927977953
      z: 2.20863807629
    orientation: 
      x: 6.79682785512e-05
      y: 0.000291595485845
      z: -0.717238018863
      w: 0.696828195935
  covariance: [0.0, 0.0, 0.0, 0.0, 0.0, 0.0, 0.0, 0.0, 0.0, 0.0, 0.0, 0.0, 0.0, 0.0, 0.0, 0.0, 0.0, 0.0, 0.0, 0.0, 0.0, 0.0, 0.0, 0.0, 0.0, 0.0, 0.0, 0.0, 0.0, 0.0, 0.0, 0.0, 0.0, 0.0, 0.0, 0.0]
twist: 
  twist: 
    linear: 
      x: 0.00266764273765
      y: 0.00935509781918
      z: 0.00233602558873
    angular: 
      x: 0.00236946316798
      y: 0.00113132844814
      z: 0.000577919004567
  covariance: [0.0, 0.0, 0.0, 0.0, 0.0, 0.0, 0.0, 0.0, 0.0, 0.0, 0.0, 0.0, 0.0, 0.0, 0.0, 0.0, 0.0, 0.0, 0.0, 0.0, 0.0, 0.0, 0.0, 0.0, 0.0, 0.0, 0.0, 0.0, 0.0, 0.0, 0.0, 0.0, 0.0, 0.0, 0.0, 0.0]
---
header: 
  seq: 9483
  stamp: 
    secs: 662
    nsecs: 346000000
  frame_id: "world"
child_frame_id: "red/base_link"
pose: 
  pose: 
    position: 
      x: -1.0535085321
      y: 1.08922036343
      z: 2.20868628247
    orientation: 
      x: 9.09276895288e-05
      y: 0.000276632054541
      z: -0.717234176627
      w: 0.69683215417
  covariance: [0.0, 0.0, 0.0, 0.0, 0.0, 0.0, 0.0, 0.0, 0.0, 0.0, 0.0, 0.0, 0.0, 0.0, 0.0, 0.0, 0.0, 0.0, 0.0, 0.0, 0.0, 0.0, 0.0, 0.0, 0.0, 0.0, 0.0, 0.0, 0.0, 0.0, 0.0, 0.0, 0.0, 0.0, 0.0, 0.0]
twist: 
  twist: 
    linear: 
      x: 0.00273553672594
      y: 0.00930012947555
      z: 0.00246752627215
    angular: 
      x: 0.00236006350748
      y: 0.000203976506226
      z: 0.000549544916988
  covariance: [0.0, 0.0, 0.0, 0.0, 0.0, 0.0, 0.0, 0.0, 0.0, 0.0, 0.0, 0.0, 0.0, 0.0, 0.0, 0.0, 0.0, 0.0, 0.0, 0.0, 0.0, 0.0, 0.0, 0.0, 0.0, 0.0, 0.0, 0.0, 0.0, 0.0, 0.0, 0.0, 0.0, 0.0, 0.0, 0.0]
---
header: 
  seq: 9484
  stamp: 
    secs: 662
    nsecs: 366000000
  frame_id: "world"
child_frame_id: "red/base_link"
pose: 
  pose: 
    position: 
      x: -1.05332444044
      y: 1.08915945229
      z: 2.2087350981
    orientation: 
      x: 9.55750518868e-05
      y: 0.000272135565399
      z: -0.717230296294
      w: 0.696836149239
  covariance: [0.0, 0.0, 0.0, 0.0, 0.0, 0.0, 0.0, 0.0, 0.0, 0.0, 0.0, 0.0, 0.0, 0.0, 0.0, 0.0, 0.0, 0.0, 0.0, 0.0, 0.0, 0.0, 0.0, 0.0, 0.0, 0.0, 0.0, 0.0, 0.0, 0.0, 0.0, 0.0, 0.0, 0.0, 0.0, 0.0]
twist: 
  twist: 
    linear: 
      x: 0.00281709713625
      y: 0.00928203075344
      z: 0.00240408036383
    angular: 
      x: -0.00122754958618
      y: -7.54566618518e-05
      z: 0.000564805540201
  covariance: [0.0, 0.0, 0.0, 0.0, 0.0, 0.0, 0.0, 0.0, 0.0, 0.0, 0.0, 0.0, 0.0, 0.0, 0.0, 0.0, 0.0, 0.0, 0.0, 0.0, 0.0, 0.0, 0.0, 0.0, 0.0, 0.0, 0.0, 0.0, 0.0, 0.0, 0.0, 0.0, 0.0, 0.0, 0.0, 0.0]
---
header: 
  seq: 9485
  stamp: 
    secs: 662
    nsecs: 386000000
  frame_id: "world"
child_frame_id: "red/base_link"
pose: 
  pose: 
    position: 
      x: -1.05314054413
      y: 1.0890968712
      z: 2.20878258242
    orientation: 
      x: 7.56422641724e-05
      y: 0.000296924416383
      z: -0.717226512956
      w: 0.696840035609
  covariance: [0.0, 0.0, 0.0, 0.0, 0.0, 0.0, 0.0, 0.0, 0.0, 0.0, 0.0, 0.0, 0.0, 0.0, 0.0, 0.0, 0.0, 0.0, 0.0, 0.0, 0.0, 0.0, 0.0, 0.0, 0.0, 0.0, 0.0, 0.0, 0.0, 0.0, 0.0, 0.0, 0.0, 0.0, 0.0, 0.0]
twist: 
  twist: 
    linear: 
      x: 0.00289749705067
      y: 0.00926844061149
      z: 0.00238021191296
    angular: 
      x: -0.00460573845964
      y: 0.000864557094863
      z: 0.000502764739039
  covariance: [0.0, 0.0, 0.0, 0.0, 0.0, 0.0, 0.0, 0.0, 0.0, 0.0, 0.0, 0.0, 0.0, 0.0, 0.0, 0.0, 0.0, 0.0, 0.0, 0.0, 0.0, 0.0, 0.0, 0.0, 0.0, 0.0, 0.0, 0.0, 0.0, 0.0, 0.0, 0.0, 0.0, 0.0, 0.0, 0.0]
---
header: 
  seq: 9486
  stamp: 
    secs: 662
    nsecs: 406000000
  frame_id: "world"
child_frame_id: "red/base_link"
pose: 
  pose: 
    position: 
      x: -1.05295722842
      y: 1.08903282
      z: 2.20883050831
    orientation: 
      x: 5.0463456571e-05
      y: 0.00033690910495
      z: -0.71722329459
      w: 0.696843332209
  covariance: [0.0, 0.0, 0.0, 0.0, 0.0, 0.0, 0.0, 0.0, 0.0, 0.0, 0.0, 0.0, 0.0, 0.0, 0.0, 0.0, 0.0, 0.0, 0.0, 0.0, 0.0, 0.0, 0.0, 0.0, 0.0, 0.0, 0.0, 0.0, 0.0, 0.0, 0.0, 0.0, 0.0, 0.0, 0.0, 0.0]
twist: 
  twist: 
    linear: 
      x: 0.00297178985924
      y: 0.00924589590503
      z: 0.00238856691122
    angular: 
      x: -0.00374032798032
      y: 0.000972582412163
      z: 0.000428281914962
  covariance: [0.0, 0.0, 0.0, 0.0, 0.0, 0.0, 0.0, 0.0, 0.0, 0.0, 0.0, 0.0, 0.0, 0.0, 0.0, 0.0, 0.0, 0.0, 0.0, 0.0, 0.0, 0.0, 0.0, 0.0, 0.0, 0.0, 0.0, 0.0, 0.0, 0.0, 0.0, 0.0, 0.0, 0.0, 0.0, 0.0]
---
header: 
  seq: 9487
  stamp: 
    secs: 662
    nsecs: 426000000
  frame_id: "world"
child_frame_id: "red/base_link"
pose: 
  pose: 
    position: 
      x: -1.05277412434
      y: 1.08896722682
      z: 2.20887700611
    orientation: 
      x: 4.54748830637e-05
      y: 0.000355926460001
      z: -0.71722043632
      w: 0.696846264949
  covariance: [0.0, 0.0, 0.0, 0.0, 0.0, 0.0, 0.0, 0.0, 0.0, 0.0, 0.0, 0.0, 0.0, 0.0, 0.0, 0.0, 0.0, 0.0, 0.0, 0.0, 0.0, 0.0, 0.0, 0.0, 0.0, 0.0, 0.0, 0.0, 0.0, 0.0, 0.0, 0.0, 0.0, 0.0, 0.0, 0.0]
twist: 
  twist: 
    linear: 
      x: 0.00305217052382
      y: 0.00924834620412
      z: 0.00227218978697
    angular: 
      x: 0.000306146882875
      y: 0.000945628582438
      z: 0.000393758768967
  covariance: [0.0, 0.0, 0.0, 0.0, 0.0, 0.0, 0.0, 0.0, 0.0, 0.0, 0.0, 0.0, 0.0, 0.0, 0.0, 0.0, 0.0, 0.0, 0.0, 0.0, 0.0, 0.0, 0.0, 0.0, 0.0, 0.0, 0.0, 0.0, 0.0, 0.0, 0.0, 0.0, 0.0, 0.0, 0.0, 0.0]
---
header: 
  seq: 9488
  stamp: 
    secs: 662
    nsecs: 446000000
  frame_id: "world"
child_frame_id: "red/base_link"
pose: 
  pose: 
    position: 
      x: -1.05259117178
      y: 1.08890005637
      z: 2.2089219573
    orientation: 
      x: 6.29996734849e-05
      y: 0.000344084719807
      z: -0.717218024638
      w: 0.696848751718
  covariance: [0.0, 0.0, 0.0, 0.0, 0.0, 0.0, 0.0, 0.0, 0.0, 0.0, 0.0, 0.0, 0.0, 0.0, 0.0, 0.0, 0.0, 0.0, 0.0, 0.0, 0.0, 0.0, 0.0, 0.0, 0.0, 0.0, 0.0, 0.0, 0.0, 0.0, 0.0, 0.0, 0.0, 0.0, 0.0, 0.0]
twist: 
  twist: 
    linear: 
      x: 0.0031261794972
      y: 0.00922242609936
      z: 0.0022722517049
    angular: 
      x: 0.00324131655436
      y: -5.52118374897e-05
      z: 0.000305640749208
  covariance: [0.0, 0.0, 0.0, 0.0, 0.0, 0.0, 0.0, 0.0, 0.0, 0.0, 0.0, 0.0, 0.0, 0.0, 0.0, 0.0, 0.0, 0.0, 0.0, 0.0, 0.0, 0.0, 0.0, 0.0, 0.0, 0.0, 0.0, 0.0, 0.0, 0.0, 0.0, 0.0, 0.0, 0.0, 0.0, 0.0]
---
header: 
  seq: 9489
  stamp: 
    secs: 662
    nsecs: 466000000
  frame_id: "world"
child_frame_id: "red/base_link"
pose: 
  pose: 
    position: 
      x: -1.05240898109
      y: 1.08883145732
      z: 2.20896779306
    orientation: 
      x: 8.06114833712e-05
      y: 0.000320453258368
      z: -0.717215961578
      w: 0.696850884529
  covariance: [0.0, 0.0, 0.0, 0.0, 0.0, 0.0, 0.0, 0.0, 0.0, 0.0, 0.0, 0.0, 0.0, 0.0, 0.0, 0.0, 0.0, 0.0, 0.0, 0.0, 0.0, 0.0, 0.0, 0.0, 0.0, 0.0, 0.0, 0.0, 0.0, 0.0, 0.0, 0.0, 0.0, 0.0, 0.0, 0.0]
twist: 
  twist: 
    linear: 
      x: 0.0032023301716
      y: 0.00919274364898
      z: 0.00228186118856
    angular: 
      x: 0.00181012143373
      y: -0.000578695016308
      z: 0.000297558673574
  covariance: [0.0, 0.0, 0.0, 0.0, 0.0, 0.0, 0.0, 0.0, 0.0, 0.0, 0.0, 0.0, 0.0, 0.0, 0.0, 0.0, 0.0, 0.0, 0.0, 0.0, 0.0, 0.0, 0.0, 0.0, 0.0, 0.0, 0.0, 0.0, 0.0, 0.0, 0.0, 0.0, 0.0, 0.0, 0.0, 0.0]
---
header: 
  seq: 9490
  stamp: 
    secs: 662
    nsecs: 486000000
  frame_id: "world"
child_frame_id: "red/base_link"
pose: 
  pose: 
    position: 
      x: -1.05222709028
      y: 1.08876122038
      z: 2.20901220405
    orientation: 
      x: 7.38234476698e-05
      y: 0.000317999589684
      z: -0.717213845449
      w: 0.696853064371
  covariance: [0.0, 0.0, 0.0, 0.0, 0.0, 0.0, 0.0, 0.0, 0.0, 0.0, 0.0, 0.0, 0.0, 0.0, 0.0, 0.0, 0.0, 0.0, 0.0, 0.0, 0.0, 0.0, 0.0, 0.0, 0.0, 0.0, 0.0, 0.0, 0.0, 0.0, 0.0, 0.0, 0.0, 0.0, 0.0, 0.0]
twist: 
  twist: 
    linear: 
      x: 0.00328819846281
      y: 0.00919181893875
      z: 0.00216890232299
    angular: 
      x: -0.00235119431279
      y: -0.000678873936023
      z: 0.000308556486161
  covariance: [0.0, 0.0, 0.0, 0.0, 0.0, 0.0, 0.0, 0.0, 0.0, 0.0, 0.0, 0.0, 0.0, 0.0, 0.0, 0.0, 0.0, 0.0, 0.0, 0.0, 0.0, 0.0, 0.0, 0.0, 0.0, 0.0, 0.0, 0.0, 0.0, 0.0, 0.0, 0.0, 0.0, 0.0, 0.0, 0.0]
---
header: 
  seq: 9491
  stamp: 
    secs: 662
    nsecs: 506000000
  frame_id: "world"
child_frame_id: "red/base_link"
pose: 
  pose: 
    position: 
      x: -1.05204554883
      y: 1.088689442
      z: 2.20905578516
    orientation: 
      x: 4.39580601936e-05
      y: 0.000341124927381
      z: -0.717211735213
      w: 0.696855227845
  covariance: [0.0, 0.0, 0.0, 0.0, 0.0, 0.0, 0.0, 0.0, 0.0, 0.0, 0.0, 0.0, 0.0, 0.0, 0.0, 0.0, 0.0, 0.0, 0.0, 0.0, 0.0, 0.0, 0.0, 0.0, 0.0, 0.0, 0.0, 0.0, 0.0, 0.0, 0.0, 0.0, 0.0, 0.0, 0.0, 0.0]
twist: 
  twist: 
    linear: 
      x: 0.00335426115132
      y: 0.00915431050699
      z: 0.00224194362322
    angular: 
      x: -0.00447945993036
      y: -0.000449489845107
      z: 0.000297200854441
  covariance: [0.0, 0.0, 0.0, 0.0, 0.0, 0.0, 0.0, 0.0, 0.0, 0.0, 0.0, 0.0, 0.0, 0.0, 0.0, 0.0, 0.0, 0.0, 0.0, 0.0, 0.0, 0.0, 0.0, 0.0, 0.0, 0.0, 0.0, 0.0, 0.0, 0.0, 0.0, 0.0, 0.0, 0.0, 0.0, 0.0]
---
header: 
  seq: 9492
  stamp: 
    secs: 662
    nsecs: 526000000
  frame_id: "world"
child_frame_id: "red/base_link"
pose: 
  pose: 
    position: 
      x: -1.05186490281
      y: 1.08861650799
      z: 2.2091011245
    orientation: 
      x: 1.41987123246e-05
      y: 0.000365753966496
      z: -0.71720968395
      w: 0.696857327772
  covariance: [0.0, 0.0, 0.0, 0.0, 0.0, 0.0, 0.0, 0.0, 0.0, 0.0, 0.0, 0.0, 0.0, 0.0, 0.0, 0.0, 0.0, 0.0, 0.0, 0.0, 0.0, 0.0, 0.0, 0.0, 0.0, 0.0, 0.0, 0.0, 0.0, 0.0, 0.0, 0.0, 0.0, 0.0, 0.0, 0.0]
twist: 
  twist: 
    linear: 
      x: 0.00341456162955
      y: 0.00912646038306
      z: 0.00226402730169
    angular: 
      x: -0.00248759048733
      y: -0.000404413357556
      z: 0.000286144731334
  covariance: [0.0, 0.0, 0.0, 0.0, 0.0, 0.0, 0.0, 0.0, 0.0, 0.0, 0.0, 0.0, 0.0, 0.0, 0.0, 0.0, 0.0, 0.0, 0.0, 0.0, 0.0, 0.0, 0.0, 0.0, 0.0, 0.0, 0.0, 0.0, 0.0, 0.0, 0.0, 0.0, 0.0, 0.0, 0.0, 0.0]
---
header: 
  seq: 9493
  stamp: 
    secs: 662
    nsecs: 546000000
  frame_id: "world"
child_frame_id: "red/base_link"
pose: 
  pose: 
    position: 
      x: -1.05168484123
      y: 1.08854246584
      z: 2.20914714731
    orientation: 
      x: 1.8080711974e-05
      y: 0.000355872027424
      z: -0.717207786805
      w: 0.696859285347
  covariance: [0.0, 0.0, 0.0, 0.0, 0.0, 0.0, 0.0, 0.0, 0.0, 0.0, 0.0, 0.0, 0.0, 0.0, 0.0, 0.0, 0.0, 0.0, 0.0, 0.0, 0.0, 0.0, 0.0, 0.0, 0.0, 0.0, 0.0, 0.0, 0.0, 0.0, 0.0, 0.0, 0.0, 0.0, 0.0, 0.0]
twist: 
  twist: 
    linear: 
      x: 0.00346220854363
      y: 0.0090824982152
      z: 0.00237889709458
    angular: 
      x: 0.00475136348199
      y: -0.000419885190021
      z: 0.00025844376446
  covariance: [0.0, 0.0, 0.0, 0.0, 0.0, 0.0, 0.0, 0.0, 0.0, 0.0, 0.0, 0.0, 0.0, 0.0, 0.0, 0.0, 0.0, 0.0, 0.0, 0.0, 0.0, 0.0, 0.0, 0.0, 0.0, 0.0, 0.0, 0.0, 0.0, 0.0, 0.0, 0.0, 0.0, 0.0, 0.0, 0.0]
---
header: 
  seq: 9494
  stamp: 
    secs: 662
    nsecs: 566000000
  frame_id: "world"
child_frame_id: "red/base_link"
pose: 
  pose: 
    position: 
      x: -1.05150588345
      y: 1.08846755344
      z: 2.20919592663
    orientation: 
      x: 7.68043224993e-05
      y: 0.000287598684793
      z: -0.717206063236
      w: 0.696861086764
  covariance: [0.0, 0.0, 0.0, 0.0, 0.0, 0.0, 0.0, 0.0, 0.0, 0.0, 0.0, 0.0, 0.0, 0.0, 0.0, 0.0, 0.0, 0.0, 0.0, 0.0, 0.0, 0.0, 0.0, 0.0, 0.0, 0.0, 0.0, 0.0, 0.0, 0.0, 0.0, 0.0, 0.0, 0.0, 0.0, 0.0]
twist: 
  twist: 
    linear: 
      x: 0.00351098105641
      y: 0.00903011952192
      z: 0.0024684784392
    angular: 
      x: 0.0120931119854
      y: -0.000656372333644
      z: 0.000247299703883
  covariance: [0.0, 0.0, 0.0, 0.0, 0.0, 0.0, 0.0, 0.0, 0.0, 0.0, 0.0, 0.0, 0.0, 0.0, 0.0, 0.0, 0.0, 0.0, 0.0, 0.0, 0.0, 0.0, 0.0, 0.0, 0.0, 0.0, 0.0, 0.0, 0.0, 0.0, 0.0, 0.0, 0.0, 0.0, 0.0, 0.0]
---
header: 
  seq: 9495
  stamp: 
    secs: 662
    nsecs: 586000000
  frame_id: "world"
child_frame_id: "red/base_link"
pose: 
  pose: 
    position: 
      x: -1.05132780903
      y: 1.08839146257
      z: 2.20924580677
    orientation: 
      x: 0.000160880288656
      y: 0.000189500475288
      z: -0.717204325456
      w: 0.696862894517
  covariance: [0.0, 0.0, 0.0, 0.0, 0.0, 0.0, 0.0, 0.0, 0.0, 0.0, 0.0, 0.0, 0.0, 0.0, 0.0, 0.0, 0.0, 0.0, 0.0, 0.0, 0.0, 0.0, 0.0, 0.0, 0.0, 0.0, 0.0, 0.0, 0.0, 0.0, 0.0, 0.0, 0.0, 0.0, 0.0, 0.0]
twist: 
  twist: 
    linear: 
      x: 0.00358102658434
      y: 0.00899335080014
      z: 0.00249236387792
    angular: 
      x: 0.012396692517
      y: -0.000931860869869
      z: 0.000263598092526
  covariance: [0.0, 0.0, 0.0, 0.0, 0.0, 0.0, 0.0, 0.0, 0.0, 0.0, 0.0, 0.0, 0.0, 0.0, 0.0, 0.0, 0.0, 0.0, 0.0, 0.0, 0.0, 0.0, 0.0, 0.0, 0.0, 0.0, 0.0, 0.0, 0.0, 0.0, 0.0, 0.0, 0.0, 0.0, 0.0, 0.0]
---
header: 
  seq: 9496
  stamp: 
    secs: 662
    nsecs: 606000000
  frame_id: "world"
child_frame_id: "red/base_link"
pose: 
  pose: 
    position: 
      x: -1.05115032319
      y: 1.08831373667
      z: 2.20929490717
    orientation: 
      x: 0.000226697665409
      y: 0.000109412144343
      z: -0.717202383991
      w: 0.696864891521
  covariance: [0.0, 0.0, 0.0, 0.0, 0.0, 0.0, 0.0, 0.0, 0.0, 0.0, 0.0, 0.0, 0.0, 0.0, 0.0, 0.0, 0.0, 0.0, 0.0, 0.0, 0.0, 0.0, 0.0, 0.0, 0.0, 0.0, 0.0, 0.0, 0.0, 0.0, 0.0, 0.0, 0.0, 0.0, 0.0, 0.0]
twist: 
  twist: 
    linear: 
      x: 0.0036718624588
      y: 0.00896986398011
      z: 0.00243429146917
    angular: 
      x: 0.00801257771736
      y: -0.000578928598441
      z: 0.000312758636464
  covariance: [0.0, 0.0, 0.0, 0.0, 0.0, 0.0, 0.0, 0.0, 0.0, 0.0, 0.0, 0.0, 0.0, 0.0, 0.0, 0.0, 0.0, 0.0, 0.0, 0.0, 0.0, 0.0, 0.0, 0.0, 0.0, 0.0, 0.0, 0.0, 0.0, 0.0, 0.0, 0.0, 0.0, 0.0, 0.0, 0.0]
---
header: 
  seq: 9497
  stamp: 
    secs: 662
    nsecs: 626000000
  frame_id: "world"
child_frame_id: "red/base_link"
pose: 
  pose: 
    position: 
      x: -1.05097360323
      y: 1.08823419413
      z: 2.20934279517
    orientation: 
      x: 0.00026126261564
      y: 6.81620333064e-05
      z: -0.717200004813
      w: 0.696867333279
  covariance: [0.0, 0.0, 0.0, 0.0, 0.0, 0.0, 0.0, 0.0, 0.0, 0.0, 0.0, 0.0, 0.0, 0.0, 0.0, 0.0, 0.0, 0.0, 0.0, 0.0, 0.0, 0.0, 0.0, 0.0, 0.0, 0.0, 0.0, 0.0, 0.0, 0.0, 0.0, 0.0, 0.0, 0.0, 0.0, 0.0]
twist: 
  twist: 
    linear: 
      x: 0.00376393461785
      y: 0.00892344027577
      z: 0.0023633777443
    angular: 
      x: 0.00319883733174
      y: -0.000439941284912
      z: 0.000370688239691
  covariance: [0.0, 0.0, 0.0, 0.0, 0.0, 0.0, 0.0, 0.0, 0.0, 0.0, 0.0, 0.0, 0.0, 0.0, 0.0, 0.0, 0.0, 0.0, 0.0, 0.0, 0.0, 0.0, 0.0, 0.0, 0.0, 0.0, 0.0, 0.0, 0.0, 0.0, 0.0, 0.0, 0.0, 0.0, 0.0, 0.0]
---
header: 
  seq: 9498
  stamp: 
    secs: 662
    nsecs: 646000000
  frame_id: "world"
child_frame_id: "red/base_link"
pose: 
  pose: 
    position: 
      x: -1.05079802174
      y: 1.08815285729
      z: 2.20939126932
    orientation: 
      x: 0.000271513998936
      y: 4.85955826343e-05
      z: -0.717197286709
      w: 0.696870128399
  covariance: [0.0, 0.0, 0.0, 0.0, 0.0, 0.0, 0.0, 0.0, 0.0, 0.0, 0.0, 0.0, 0.0, 0.0, 0.0, 0.0, 0.0, 0.0, 0.0, 0.0, 0.0, 0.0, 0.0, 0.0, 0.0, 0.0, 0.0, 0.0, 0.0, 0.0, 0.0, 0.0, 0.0, 0.0, 0.0, 0.0]
twist: 
  twist: 
    linear: 
      x: 0.0038544625399
      y: 0.00886447029127
      z: 0.00250441557368
    angular: 
      x: 0.00161519549635
      y: -0.000795235172764
      z: 0.000395884403679
  covariance: [0.0, 0.0, 0.0, 0.0, 0.0, 0.0, 0.0, 0.0, 0.0, 0.0, 0.0, 0.0, 0.0, 0.0, 0.0, 0.0, 0.0, 0.0, 0.0, 0.0, 0.0, 0.0, 0.0, 0.0, 0.0, 0.0, 0.0, 0.0, 0.0, 0.0, 0.0, 0.0, 0.0, 0.0, 0.0, 0.0]
---
header: 
  seq: 9499
  stamp: 
    secs: 662
    nsecs: 666000000
  frame_id: "world"
child_frame_id: "red/base_link"
pose: 
  pose: 
    position: 
      x: -1.05062373506
      y: 1.08806977889
      z: 2.20944284225
    orientation: 
      x: 0.000281548239534
      y: 2.9230652394e-05
      z: -0.717194420494
      w: 0.696873075307
  covariance: [0.0, 0.0, 0.0, 0.0, 0.0, 0.0, 0.0, 0.0, 0.0, 0.0, 0.0, 0.0, 0.0, 0.0, 0.0, 0.0, 0.0, 0.0, 0.0, 0.0, 0.0, 0.0, 0.0, 0.0, 0.0, 0.0, 0.0, 0.0, 0.0, 0.0, 0.0, 0.0, 0.0, 0.0, 0.0, 0.0]
twist: 
  twist: 
    linear: 
      x: 0.00394185416973
      y: 0.00879969240132
      z: 0.00261334229502
    angular: 
      x: 0.00302975646732
      y: -0.000339211729925
      z: 0.000431917221621
  covariance: [0.0, 0.0, 0.0, 0.0, 0.0, 0.0, 0.0, 0.0, 0.0, 0.0, 0.0, 0.0, 0.0, 0.0, 0.0, 0.0, 0.0, 0.0, 0.0, 0.0, 0.0, 0.0, 0.0, 0.0, 0.0, 0.0, 0.0, 0.0, 0.0, 0.0, 0.0, 0.0, 0.0, 0.0, 0.0, 0.0]
---
header: 
  seq: 9500
  stamp: 
    secs: 662
    nsecs: 686000000
  frame_id: "world"
child_frame_id: "red/base_link"
pose: 
  pose: 
    position: 
      x: -1.05045095326
      y: 1.08798503996
      z: 2.20949687978
    orientation: 
      x: 0.000306525128196
      y: 2.22460570666e-06
      z: -0.717191294297
      w: 0.696876282723
  covariance: [0.0, 0.0, 0.0, 0.0, 0.0, 0.0, 0.0, 0.0, 0.0, 0.0, 0.0, 0.0, 0.0, 0.0, 0.0, 0.0, 0.0, 0.0, 0.0, 0.0, 0.0, 0.0, 0.0, 0.0, 0.0, 0.0, 0.0, 0.0, 0.0, 0.0, 0.0, 0.0, 0.0, 0.0, 0.0, 0.0]
twist: 
  twist: 
    linear: 
      x: 0.00402381318456
      y: 0.0087147255316
      z: 0.00280103319829
    angular: 
      x: 0.00402370600515
      y: 3.97308421295e-05
      z: 0.000457650554635
  covariance: [0.0, 0.0, 0.0, 0.0, 0.0, 0.0, 0.0, 0.0, 0.0, 0.0, 0.0, 0.0, 0.0, 0.0, 0.0, 0.0, 0.0, 0.0, 0.0, 0.0, 0.0, 0.0, 0.0, 0.0, 0.0, 0.0, 0.0, 0.0, 0.0, 0.0, 0.0, 0.0, 0.0, 0.0, 0.0, 0.0]
---
header: 
  seq: 9501
  stamp: 
    secs: 662
    nsecs: 706000000
  frame_id: "world"
child_frame_id: "red/base_link"
pose: 
  pose: 
    position: 
      x: -1.05028036957
      y: 1.08789885612
      z: 2.20955557567
    orientation: 
      x: 0.000336022403106
      y: -2.69818043369e-05
      z: -0.717188077166
      w: 0.696879579505
  covariance: [0.0, 0.0, 0.0, 0.0, 0.0, 0.0, 0.0, 0.0, 0.0, 0.0, 0.0, 0.0, 0.0, 0.0, 0.0, 0.0, 0.0, 0.0, 0.0, 0.0, 0.0, 0.0, 0.0, 0.0, 0.0, 0.0, 0.0, 0.0, 0.0, 0.0, 0.0, 0.0, 0.0, 0.0, 0.0, 0.0]
twist: 
  twist: 
    linear: 
      x: 0.00409784934153
      y: 0.00859657143552
      z: 0.00305424994182
    angular: 
      x: 0.00416925623698
      y: 5.65312229663e-05
      z: 0.000467229619429
  covariance: [0.0, 0.0, 0.0, 0.0, 0.0, 0.0, 0.0, 0.0, 0.0, 0.0, 0.0, 0.0, 0.0, 0.0, 0.0, 0.0, 0.0, 0.0, 0.0, 0.0, 0.0, 0.0, 0.0, 0.0, 0.0, 0.0, 0.0, 0.0, 0.0, 0.0, 0.0, 0.0, 0.0, 0.0, 0.0, 0.0]
---
header: 
  seq: 9502
  stamp: 
    secs: 662
    nsecs: 726000000
  frame_id: "world"
child_frame_id: "red/base_link"
pose: 
  pose: 
    position: 
      x: -1.05011220876
      y: 1.08781117897
      z: 2.20961878699
    orientation: 
      x: 0.000359240780702
      y: -5.62302267156e-05
      z: -0.717184571401
      w: 0.696883174089
  covariance: [0.0, 0.0, 0.0, 0.0, 0.0, 0.0, 0.0, 0.0, 0.0, 0.0, 0.0, 0.0, 0.0, 0.0, 0.0, 0.0, 0.0, 0.0, 0.0, 0.0, 0.0, 0.0, 0.0, 0.0, 0.0, 0.0, 0.0, 0.0, 0.0, 0.0, 0.0, 0.0, 0.0, 0.0, 0.0, 0.0]
twist: 
  twist: 
    linear: 
      x: 0.00418028352288
      y: 0.00847919231079
      z: 0.00323803638985
    angular: 
      x: 0.0030960442624
      y: -0.00094539920013
      z: 0.000549541372071
  covariance: [0.0, 0.0, 0.0, 0.0, 0.0, 0.0, 0.0, 0.0, 0.0, 0.0, 0.0, 0.0, 0.0, 0.0, 0.0, 0.0, 0.0, 0.0, 0.0, 0.0, 0.0, 0.0, 0.0, 0.0, 0.0, 0.0, 0.0, 0.0, 0.0, 0.0, 0.0, 0.0, 0.0, 0.0, 0.0, 0.0]
---
header: 
  seq: 9503
  stamp: 
    secs: 662
    nsecs: 746000000
  frame_id: "world"
child_frame_id: "red/base_link"
pose: 
  pose: 
    position: 
      x: -1.04994641894
      y: 1.08772186749
      z: 2.20968489416
    orientation: 
      x: 0.000361348234488
      y: -8.35090060252e-05
      z: -0.71718029833
      w: 0.69688756779
  covariance: [0.0, 0.0, 0.0, 0.0, 0.0, 0.0, 0.0, 0.0, 0.0, 0.0, 0.0, 0.0, 0.0, 0.0, 0.0, 0.0, 0.0, 0.0, 0.0, 0.0, 0.0, 0.0, 0.0, 0.0, 0.0, 0.0, 0.0, 0.0, 0.0, 0.0, 0.0, 0.0, 0.0, 0.0, 0.0, 0.0]
twist: 
  twist: 
    linear: 
      x: 0.00426328750151
      y: 0.00835784821371
      z: 0.00333962430684
    angular: 
      x: 0.00101121669402
      y: -0.00242424130709
      z: 0.000665073190378
  covariance: [0.0, 0.0, 0.0, 0.0, 0.0, 0.0, 0.0, 0.0, 0.0, 0.0, 0.0, 0.0, 0.0, 0.0, 0.0, 0.0, 0.0, 0.0, 0.0, 0.0, 0.0, 0.0, 0.0, 0.0, 0.0, 0.0, 0.0, 0.0, 0.0, 0.0, 0.0, 0.0, 0.0, 0.0, 0.0, 0.0]
---
header: 
  seq: 9504
  stamp: 
    secs: 662
    nsecs: 766000000
  frame_id: "world"
child_frame_id: "red/base_link"
pose: 
  pose: 
    position: 
      x: -1.04978315742
      y: 1.08763105987
      z: 2.20975144271
    orientation: 
      x: 0.000336036516547
      y: -0.000112895711164
      z: -0.717175503188
      w: 0.696892511053
  covariance: [0.0, 0.0, 0.0, 0.0, 0.0, 0.0, 0.0, 0.0, 0.0, 0.0, 0.0, 0.0, 0.0, 0.0, 0.0, 0.0, 0.0, 0.0, 0.0, 0.0, 0.0, 0.0, 0.0, 0.0, 0.0, 0.0, 0.0, 0.0, 0.0, 0.0, 0.0, 0.0, 0.0, 0.0, 0.0, 0.0]
twist: 
  twist: 
    linear: 
      x: 0.00433702318629
      y: 0.00823247491254
      z: 0.00328895161631
    angular: 
      x: -1.46103032541e-05
      y: -0.00551143229149
      z: 0.00070474135197
  covariance: [0.0, 0.0, 0.0, 0.0, 0.0, 0.0, 0.0, 0.0, 0.0, 0.0, 0.0, 0.0, 0.0, 0.0, 0.0, 0.0, 0.0, 0.0, 0.0, 0.0, 0.0, 0.0, 0.0, 0.0, 0.0, 0.0, 0.0, 0.0, 0.0, 0.0, 0.0, 0.0, 0.0, 0.0, 0.0, 0.0]
---
header: 
  seq: 9505
  stamp: 
    secs: 662
    nsecs: 786000000
  frame_id: "world"
child_frame_id: "red/base_link"
pose: 
  pose: 
    position: 
      x: -1.04962243023
      y: 1.08753905806
      z: 2.20981610502
    orientation: 
      x: 0.000285428591318
      y: -0.000165693207237
      z: -0.717170575392
      w: 0.696897594248
  covariance: [0.0, 0.0, 0.0, 0.0, 0.0, 0.0, 0.0, 0.0, 0.0, 0.0, 0.0, 0.0, 0.0, 0.0, 0.0, 0.0, 0.0, 0.0, 0.0, 0.0, 0.0, 0.0, 0.0, 0.0, 0.0, 0.0, 0.0, 0.0, 0.0, 0.0, 0.0, 0.0, 0.0, 0.0, 0.0, 0.0]
twist: 
  twist: 
    linear: 
      x: 0.00438924878972
      y: 0.00810807046788
      z: 0.00317065247937
    angular: 
      x: 0.00121348841513
      y: -0.00839879398377
      z: 0.000709925655383
  covariance: [0.0, 0.0, 0.0, 0.0, 0.0, 0.0, 0.0, 0.0, 0.0, 0.0, 0.0, 0.0, 0.0, 0.0, 0.0, 0.0, 0.0, 0.0, 0.0, 0.0, 0.0, 0.0, 0.0, 0.0, 0.0, 0.0, 0.0, 0.0, 0.0, 0.0, 0.0, 0.0, 0.0, 0.0, 0.0, 0.0]
---
header: 
  seq: 9506
  stamp: 
    secs: 662
    nsecs: 806000000
  frame_id: "world"
child_frame_id: "red/base_link"
pose: 
  pose: 
    position: 
      x: -1.04946423139
      y: 1.08744644088
      z: 2.20987823531
    orientation: 
      x: 0.000244792233183
      y: -0.000244838154944
      z: -0.717165689478
      w: 0.696902614407
  covariance: [0.0, 0.0, 0.0, 0.0, 0.0, 0.0, 0.0, 0.0, 0.0, 0.0, 0.0, 0.0, 0.0, 0.0, 0.0, 0.0, 0.0, 0.0, 0.0, 0.0, 0.0, 0.0, 0.0, 0.0, 0.0, 0.0, 0.0, 0.0, 0.0, 0.0, 0.0, 0.0, 0.0, 0.0, 0.0, 0.0]
twist: 
  twist: 
    linear: 
      x: 0.00440781246377
      y: 0.00797922205284
      z: 0.00303820463654
    angular: 
      x: 0.00386820267148
      y: -0.00770178808515
      z: 0.000697506147998
  covariance: [0.0, 0.0, 0.0, 0.0, 0.0, 0.0, 0.0, 0.0, 0.0, 0.0, 0.0, 0.0, 0.0, 0.0, 0.0, 0.0, 0.0, 0.0, 0.0, 0.0, 0.0, 0.0, 0.0, 0.0, 0.0, 0.0, 0.0, 0.0, 0.0, 0.0, 0.0, 0.0, 0.0, 0.0, 0.0, 0.0]
---
header: 
  seq: 9507
  stamp: 
    secs: 662
    nsecs: 826000000
  frame_id: "world"
child_frame_id: "red/base_link"
pose: 
  pose: 
    position: 
      x: -1.04930876591
      y: 1.08735388596
      z: 2.20993770329
    orientation: 
      x: 0.000232414327144
      y: -0.000316538606604
      z: -0.717160870868
      w: 0.696907548447
  covariance: [0.0, 0.0, 0.0, 0.0, 0.0, 0.0, 0.0, 0.0, 0.0, 0.0, 0.0, 0.0, 0.0, 0.0, 0.0, 0.0, 0.0, 0.0, 0.0, 0.0, 0.0, 0.0, 0.0, 0.0, 0.0, 0.0, 0.0, 0.0, 0.0, 0.0, 0.0, 0.0, 0.0, 0.0, 0.0, 0.0]
twist: 
  twist: 
    linear: 
      x: 0.00439543086487
      y: 0.00783480032019
      z: 0.00290308172616
    angular: 
      x: 0.00450491691096
      y: -0.00403968143035
      z: 0.000686574347963
  covariance: [0.0, 0.0, 0.0, 0.0, 0.0, 0.0, 0.0, 0.0, 0.0, 0.0, 0.0, 0.0, 0.0, 0.0, 0.0, 0.0, 0.0, 0.0, 0.0, 0.0, 0.0, 0.0, 0.0, 0.0, 0.0, 0.0, 0.0, 0.0, 0.0, 0.0, 0.0, 0.0, 0.0, 0.0, 0.0, 0.0]
---
header: 
  seq: 9508
  stamp: 
    secs: 662
    nsecs: 846000000
  frame_id: "world"
child_frame_id: "red/base_link"
pose: 
  pose: 
    position: 
      x: -1.04915636489
      y: 1.08726187413
      z: 2.20999525511
    orientation: 
      x: 0.000251380359848
      y: -0.000355931367196
      z: -0.717155898317
      w: 0.696912639884
  covariance: [0.0, 0.0, 0.0, 0.0, 0.0, 0.0, 0.0, 0.0, 0.0, 0.0, 0.0, 0.0, 0.0, 0.0, 0.0, 0.0, 0.0, 0.0, 0.0, 0.0, 0.0, 0.0, 0.0, 0.0, 0.0, 0.0, 0.0, 0.0, 0.0, 0.0, 0.0, 0.0, 0.0, 0.0, 0.0, 0.0]
twist: 
  twist: 
    linear: 
      x: 0.00436659915329
      y: 0.00767245835678
      z: 0.00286195159312
    angular: 
      x: 0.00354852828559
      y: 0.00127584329174
      z: 0.000751506880728
  covariance: [0.0, 0.0, 0.0, 0.0, 0.0, 0.0, 0.0, 0.0, 0.0, 0.0, 0.0, 0.0, 0.0, 0.0, 0.0, 0.0, 0.0, 0.0, 0.0, 0.0, 0.0, 0.0, 0.0, 0.0, 0.0, 0.0, 0.0, 0.0, 0.0, 0.0, 0.0, 0.0, 0.0, 0.0, 0.0, 0.0]
---
header: 
  seq: 9509
  stamp: 
    secs: 662
    nsecs: 866000000
  frame_id: "world"
child_frame_id: "red/base_link"
pose: 
  pose: 
    position: 
      x: -1.04900735688
      y: 1.08717052375
      z: 2.21005232024
    orientation: 
      x: 0.000292882168547
      y: -0.000350525093506
      z: -0.717150581373
      w: 0.696918097763
  covariance: [0.0, 0.0, 0.0, 0.0, 0.0, 0.0, 0.0, 0.0, 0.0, 0.0, 0.0, 0.0, 0.0, 0.0, 0.0, 0.0, 0.0, 0.0, 0.0, 0.0, 0.0, 0.0, 0.0, 0.0, 0.0, 0.0, 0.0, 0.0, 0.0, 0.0, 0.0, 0.0, 0.0, 0.0, 0.0, 0.0]
twist: 
  twist: 
    linear: 
      x: 0.00434259184
      y: 0.0074955693981
      z: 0.00281770837813
    angular: 
      x: 0.00106034873367
      y: 0.00452738758202
      z: 0.000763207354317
  covariance: [0.0, 0.0, 0.0, 0.0, 0.0, 0.0, 0.0, 0.0, 0.0, 0.0, 0.0, 0.0, 0.0, 0.0, 0.0, 0.0, 0.0, 0.0, 0.0, 0.0, 0.0, 0.0, 0.0, 0.0, 0.0, 0.0, 0.0, 0.0, 0.0, 0.0, 0.0, 0.0, 0.0, 0.0, 0.0, 0.0]
---
header: 
  seq: 9510
  stamp: 
    secs: 662
    nsecs: 886000000
  frame_id: "world"
child_frame_id: "red/base_link"
pose: 
  pose: 
    position: 
      x: -1.04886194814
      y: 1.08707956919
      z: 2.21010689007
    orientation: 
      x: 0.000320601476996
      y: -0.000313597347575
      z: -0.717145418835
      w: 0.696923415531
  covariance: [0.0, 0.0, 0.0, 0.0, 0.0, 0.0, 0.0, 0.0, 0.0, 0.0, 0.0, 0.0, 0.0, 0.0, 0.0, 0.0, 0.0, 0.0, 0.0, 0.0, 0.0, 0.0, 0.0, 0.0, 0.0, 0.0, 0.0, 0.0, 0.0, 0.0, 0.0, 0.0, 0.0, 0.0, 0.0, 0.0]
twist: 
  twist: 
    linear: 
      x: 0.00433688325765
      y: 0.00731402434566
      z: 0.00260103901536
    angular: 
      x: -0.00211461287979
      y: 0.00416368379331
      z: 0.000698333258699
  covariance: [0.0, 0.0, 0.0, 0.0, 0.0, 0.0, 0.0, 0.0, 0.0, 0.0, 0.0, 0.0, 0.0, 0.0, 0.0, 0.0, 0.0, 0.0, 0.0, 0.0, 0.0, 0.0, 0.0, 0.0, 0.0, 0.0, 0.0, 0.0, 0.0, 0.0, 0.0, 0.0, 0.0, 0.0, 0.0, 0.0]
---
header: 
  seq: 9511
  stamp: 
    secs: 662
    nsecs: 906000000
  frame_id: "world"
child_frame_id: "red/base_link"
pose: 
  pose: 
    position: 
      x: -1.04872008798
      y: 1.08698864391
      z: 2.21015430702
    orientation: 
      x: 0.000328060425847
      y: -0.000269377461627
      z: -0.717140851341
      w: 0.696928130549
  covariance: [0.0, 0.0, 0.0, 0.0, 0.0, 0.0, 0.0, 0.0, 0.0, 0.0, 0.0, 0.0, 0.0, 0.0, 0.0, 0.0, 0.0, 0.0, 0.0, 0.0, 0.0, 0.0, 0.0, 0.0, 0.0, 0.0, 0.0, 0.0, 0.0, 0.0, 0.0, 0.0, 0.0, 0.0, 0.0, 0.0]
twist: 
  twist: 
    linear: 
      x: 0.00434802183874
      y: 0.00714100293019
      z: 0.00209569568283
    angular: 
      x: -0.00252709544043
      y: 0.00295532285534
      z: 0.000603563639859
  covariance: [0.0, 0.0, 0.0, 0.0, 0.0, 0.0, 0.0, 0.0, 0.0, 0.0, 0.0, 0.0, 0.0, 0.0, 0.0, 0.0, 0.0, 0.0, 0.0, 0.0, 0.0, 0.0, 0.0, 0.0, 0.0, 0.0, 0.0, 0.0, 0.0, 0.0, 0.0, 0.0, 0.0, 0.0, 0.0, 0.0]
---
header: 
  seq: 9512
  stamp: 
    secs: 662
    nsecs: 926000000
  frame_id: "world"
child_frame_id: "red/base_link"
pose: 
  pose: 
    position: 
      x: -1.04858156341
      y: 1.08689745599
      z: 2.2101890082
    orientation: 
      x: 0.000330557255089
      y: -0.000244165465663
      z: -0.717137184313
      w: 0.696931912019
  covariance: [0.0, 0.0, 0.0, 0.0, 0.0, 0.0, 0.0, 0.0, 0.0, 0.0, 0.0, 0.0, 0.0, 0.0, 0.0, 0.0, 0.0, 0.0, 0.0, 0.0, 0.0, 0.0, 0.0, 0.0, 0.0, 0.0, 0.0, 0.0, 0.0, 0.0, 0.0, 0.0, 0.0, 0.0, 0.0, 0.0]
twist: 
  twist: 
    linear: 
      x: 0.00437097646124
      y: 0.0069785887785
      z: 0.00138584701879
    angular: 
      x: -0.000686594912636
      y: 0.000964681394287
      z: 0.000451936272938
  covariance: [0.0, 0.0, 0.0, 0.0, 0.0, 0.0, 0.0, 0.0, 0.0, 0.0, 0.0, 0.0, 0.0, 0.0, 0.0, 0.0, 0.0, 0.0, 0.0, 0.0, 0.0, 0.0, 0.0, 0.0, 0.0, 0.0, 0.0, 0.0, 0.0, 0.0, 0.0, 0.0, 0.0, 0.0, 0.0, 0.0]
---
header: 
  seq: 9513
  stamp: 
    secs: 662
    nsecs: 946000000
  frame_id: "world"
child_frame_id: "red/base_link"
pose: 
  pose: 
    position: 
      x: -1.0484462432
      y: 1.08680585083
      z: 2.21020991635
    orientation: 
      x: 0.000332669904222
      y: -0.000241336572989
      z: -0.717134361853
      w: 0.696934816275
  covariance: [0.0, 0.0, 0.0, 0.0, 0.0, 0.0, 0.0, 0.0, 0.0, 0.0, 0.0, 0.0, 0.0, 0.0, 0.0, 0.0, 0.0, 0.0, 0.0, 0.0, 0.0, 0.0, 0.0, 0.0, 0.0, 0.0, 0.0, 0.0, 0.0, 0.0, 0.0, 0.0, 0.0, 0.0, 0.0, 0.0]
twist: 
  twist: 
    linear: 
      x: 0.00439771204807
      y: 0.00681922942571
      z: 0.00074779372327
    angular: 
      x: 0.000280678423554
      y: 1.96793680331e-05
      z: 0.000379308303652
  covariance: [0.0, 0.0, 0.0, 0.0, 0.0, 0.0, 0.0, 0.0, 0.0, 0.0, 0.0, 0.0, 0.0, 0.0, 0.0, 0.0, 0.0, 0.0, 0.0, 0.0, 0.0, 0.0, 0.0, 0.0, 0.0, 0.0, 0.0, 0.0, 0.0, 0.0, 0.0, 0.0, 0.0, 0.0, 0.0, 0.0]
---
header: 
  seq: 9514
  stamp: 
    secs: 662
    nsecs: 966000000
  frame_id: "world"
child_frame_id: "red/base_link"
pose: 
  pose: 
    position: 
      x: -1.04831412402
      y: 1.0867137985
      z: 2.21022048275
    orientation: 
      x: 0.000328703735437
      y: -0.000250808037118
      z: -0.717131781006
      w: 0.696937470452
  covariance: [0.0, 0.0, 0.0, 0.0, 0.0, 0.0, 0.0, 0.0, 0.0, 0.0, 0.0, 0.0, 0.0, 0.0, 0.0, 0.0, 0.0, 0.0, 0.0, 0.0, 0.0, 0.0, 0.0, 0.0, 0.0, 0.0, 0.0, 0.0, 0.0, 0.0, 0.0, 0.0, 0.0, 0.0, 0.0, 0.0]
twist: 
  twist: 
    linear: 
      x: 0.00442469364365
      y: 0.00665879026236
      z: 0.000377628253138
    angular: 
      x: 0.000462024422891
      y: -0.00233801984232
      z: 0.000367482121087
  covariance: [0.0, 0.0, 0.0, 0.0, 0.0, 0.0, 0.0, 0.0, 0.0, 0.0, 0.0, 0.0, 0.0, 0.0, 0.0, 0.0, 0.0, 0.0, 0.0, 0.0, 0.0, 0.0, 0.0, 0.0, 0.0, 0.0, 0.0, 0.0, 0.0, 0.0, 0.0, 0.0, 0.0, 0.0, 0.0, 0.0]
---
header: 
  seq: 9515
  stamp: 
    secs: 662
    nsecs: 986000000
  frame_id: "world"
child_frame_id: "red/base_link"
pose: 
  pose: 
    position: 
      x: -1.04818524104
      y: 1.08662136701
      z: 2.21022610012
    orientation: 
      x: 0.000300361420484
      y: -0.000285027084049
      z: -0.717129220512
      w: 0.696940104765
  covariance: [0.0, 0.0, 0.0, 0.0, 0.0, 0.0, 0.0, 0.0, 0.0, 0.0, 0.0, 0.0, 0.0, 0.0, 0.0, 0.0, 0.0, 0.0, 0.0, 0.0, 0.0, 0.0, 0.0, 0.0, 0.0, 0.0, 0.0, 0.0, 0.0, 0.0, 0.0, 0.0, 0.0, 0.0, 0.0, 0.0]
twist: 
  twist: 
    linear: 
      x: 0.00444299860697
      y: 0.00649639641519
      z: 0.000196686559143
    angular: 
      x: 0.000488276222607
      y: -0.0063876680265
      z: 0.000371919632907
  covariance: [0.0, 0.0, 0.0, 0.0, 0.0, 0.0, 0.0, 0.0, 0.0, 0.0, 0.0, 0.0, 0.0, 0.0, 0.0, 0.0, 0.0, 0.0, 0.0, 0.0, 0.0, 0.0, 0.0, 0.0, 0.0, 0.0, 0.0, 0.0, 0.0, 0.0, 0.0, 0.0, 0.0, 0.0, 0.0, 0.0]
---
header: 
  seq: 9516
  stamp: 
    secs: 663
    nsecs:   6000000
  frame_id: "world"
child_frame_id: "red/base_link"
pose: 
  pose: 
    position: 
      x: -1.0480596277
      y: 1.08652890265
      z: 2.21023059115
    orientation: 
      x: 0.00024915799833
      y: -0.000341789600185
      z: -0.7171266337
      w: 0.696942761163
  covariance: [0.0, 0.0, 0.0, 0.0, 0.0, 0.0, 0.0, 0.0, 0.0, 0.0, 0.0, 0.0, 0.0, 0.0, 0.0, 0.0, 0.0, 0.0, 0.0, 0.0, 0.0, 0.0, 0.0, 0.0, 0.0, 0.0, 0.0, 0.0, 0.0, 0.0, 0.0, 0.0, 0.0, 0.0, 0.0, 0.0]
twist: 
  twist: 
    linear: 
      x: 0.00443625736436
      y: 0.00633202369646
      z: 0.000286881381909
    angular: 
      x: 0.000515790351322
      y: -0.00828653914374
      z: 0.000374989941518
  covariance: [0.0, 0.0, 0.0, 0.0, 0.0, 0.0, 0.0, 0.0, 0.0, 0.0, 0.0, 0.0, 0.0, 0.0, 0.0, 0.0, 0.0, 0.0, 0.0, 0.0, 0.0, 0.0, 0.0, 0.0, 0.0, 0.0, 0.0, 0.0, 0.0, 0.0, 0.0, 0.0, 0.0, 0.0, 0.0, 0.0]
---
header: 
  seq: 9517
  stamp: 
    secs: 663
    nsecs:  26000000
  frame_id: "world"
child_frame_id: "red/base_link"
pose: 
  pose: 
    position: 
      x: -1.04793730753
      y: 1.08643701288
      z: 2.21023800411
    orientation: 
      x: 0.000197790582807
      y: -0.000404230160582
      z: -0.717123876936
      w: 0.696945580806
  covariance: [0.0, 0.0, 0.0, 0.0, 0.0, 0.0, 0.0, 0.0, 0.0, 0.0, 0.0, 0.0, 0.0, 0.0, 0.0, 0.0, 0.0, 0.0, 0.0, 0.0, 0.0, 0.0, 0.0, 0.0, 0.0, 0.0, 0.0, 0.0, 0.0, 0.0, 0.0, 0.0, 0.0, 0.0, 0.0, 0.0]
twist: 
  twist: 
    linear: 
      x: 0.00439648684513
      y: 0.00616570973598
      z: 0.000405215393662
    angular: 
      x: 0.00140485085981
      y: -0.00729969285041
      z: 0.000427471433185
  covariance: [0.0, 0.0, 0.0, 0.0, 0.0, 0.0, 0.0, 0.0, 0.0, 0.0, 0.0, 0.0, 0.0, 0.0, 0.0, 0.0, 0.0, 0.0, 0.0, 0.0, 0.0, 0.0, 0.0, 0.0, 0.0, 0.0, 0.0, 0.0, 0.0, 0.0, 0.0, 0.0, 0.0, 0.0, 0.0, 0.0]
---
header: 
  seq: 9518
  stamp: 
    secs: 663
    nsecs:  46000000
  frame_id: "world"
child_frame_id: "red/base_link"
pose: 
  pose: 
    position: 
      x: -1.04781832923
      y: 1.08634633795
      z: 2.21024646107
    orientation: 
      x: 0.00016971598534
      y: -0.000460342106763
      z: -0.717120628725
      w: 0.696948895643
  covariance: [0.0, 0.0, 0.0, 0.0, 0.0, 0.0, 0.0, 0.0, 0.0, 0.0, 0.0, 0.0, 0.0, 0.0, 0.0, 0.0, 0.0, 0.0, 0.0, 0.0, 0.0, 0.0, 0.0, 0.0, 0.0, 0.0, 0.0, 0.0, 0.0, 0.0, 0.0, 0.0, 0.0, 0.0, 0.0, 0.0]
twist: 
  twist: 
    linear: 
      x: 0.00432753595528
      y: 0.00599379296729
      z: 0.000403585023877
    angular: 
      x: 0.00238243622922
      y: -0.00440392232312
      z: 0.000483276091822
  covariance: [0.0, 0.0, 0.0, 0.0, 0.0, 0.0, 0.0, 0.0, 0.0, 0.0, 0.0, 0.0, 0.0, 0.0, 0.0, 0.0, 0.0, 0.0, 0.0, 0.0, 0.0, 0.0, 0.0, 0.0, 0.0, 0.0, 0.0, 0.0, 0.0, 0.0, 0.0, 0.0, 0.0, 0.0, 0.0, 0.0]
---
header: 
  seq: 9519
  stamp: 
    secs: 663
    nsecs:  66000000
  frame_id: "world"
child_frame_id: "red/base_link"
pose: 
  pose: 
    position: 
      x: -1.04770284434
      y: 1.08625735512
      z: 2.21025465475
    orientation: 
      x: 0.000168842700199
      y: -0.00048785283054
      z: -0.717117065408
      w: 0.696952543573
  covariance: [0.0, 0.0, 0.0, 0.0, 0.0, 0.0, 0.0, 0.0, 0.0, 0.0, 0.0, 0.0, 0.0, 0.0, 0.0, 0.0, 0.0, 0.0, 0.0, 0.0, 0.0, 0.0, 0.0, 0.0, 0.0, 0.0, 0.0, 0.0, 0.0, 0.0, 0.0, 0.0, 0.0, 0.0, 0.0, 0.0]
twist: 
  twist: 
    linear: 
      x: 0.00424081810046
      y: 0.00581212310655
      z: 0.000416072196565
    angular: 
      x: 0.00118663539006
      y: 0.000618715887679
      z: 0.000555526004547
  covariance: [0.0, 0.0, 0.0, 0.0, 0.0, 0.0, 0.0, 0.0, 0.0, 0.0, 0.0, 0.0, 0.0, 0.0, 0.0, 0.0, 0.0, 0.0, 0.0, 0.0, 0.0, 0.0, 0.0, 0.0, 0.0, 0.0, 0.0, 0.0, 0.0, 0.0, 0.0, 0.0, 0.0, 0.0, 0.0, 0.0]
---
header: 
  seq: 9520
  stamp: 
    secs: 663
    nsecs:  86000000
  frame_id: "world"
child_frame_id: "red/base_link"
pose: 
  pose: 
    position: 
      x: -1.04759100463
      y: 1.08617022784
      z: 2.21026311997
    orientation: 
      x: 0.000194903515359
      y: -0.000468646232002
      z: -0.717113050838
      w: 0.696956680649
  covariance: [0.0, 0.0, 0.0, 0.0, 0.0, 0.0, 0.0, 0.0, 0.0, 0.0, 0.0, 0.0, 0.0, 0.0, 0.0, 0.0, 0.0, 0.0, 0.0, 0.0, 0.0, 0.0, 0.0, 0.0, 0.0, 0.0, 0.0, 0.0, 0.0, 0.0, 0.0, 0.0, 0.0, 0.0, 0.0, 0.0]
twist: 
  twist: 
    linear: 
      x: 0.00415637992633
      y: 0.00562544509713
      z: 0.000425554487481
    angular: 
      x: -0.000348949823431
      y: 0.00508525791032
      z: 0.000558725160599
  covariance: [0.0, 0.0, 0.0, 0.0, 0.0, 0.0, 0.0, 0.0, 0.0, 0.0, 0.0, 0.0, 0.0, 0.0, 0.0, 0.0, 0.0, 0.0, 0.0, 0.0, 0.0, 0.0, 0.0, 0.0, 0.0, 0.0, 0.0, 0.0, 0.0, 0.0, 0.0, 0.0, 0.0, 0.0, 0.0, 0.0]
---
header: 
  seq: 9521
  stamp: 
    secs: 663
    nsecs: 106000000
  frame_id: "world"
child_frame_id: "red/base_link"
pose: 
  pose: 
    position: 
      x: -1.04748285025
      y: 1.08608469809
      z: 2.21027248078
    orientation: 
      x: 0.000228082944601
      y: -0.000422626957554
      z: -0.717109267115
      w: 0.696960593135
  covariance: [0.0, 0.0, 0.0, 0.0, 0.0, 0.0, 0.0, 0.0, 0.0, 0.0, 0.0, 0.0, 0.0, 0.0, 0.0, 0.0, 0.0, 0.0, 0.0, 0.0, 0.0, 0.0, 0.0, 0.0, 0.0, 0.0, 0.0, 0.0, 0.0, 0.0, 0.0, 0.0, 0.0, 0.0, 0.0, 0.0]
twist: 
  twist: 
    linear: 
      x: 0.00409262097211
      y: 0.00544024969931
      z: 0.000463610867809
    angular: 
      x: -0.00136819654837
      y: 0.00507029545551
      z: 0.000537219563412
  covariance: [0.0, 0.0, 0.0, 0.0, 0.0, 0.0, 0.0, 0.0, 0.0, 0.0, 0.0, 0.0, 0.0, 0.0, 0.0, 0.0, 0.0, 0.0, 0.0, 0.0, 0.0, 0.0, 0.0, 0.0, 0.0, 0.0, 0.0, 0.0, 0.0, 0.0, 0.0, 0.0, 0.0, 0.0, 0.0, 0.0]
---
header: 
  seq: 9522
  stamp: 
    secs: 663
    nsecs: 126000000
  frame_id: "world"
child_frame_id: "red/base_link"
pose: 
  pose: 
    position: 
      x: -1.04737830841
      y: 1.08600031173
      z: 2.2102809676
    orientation: 
      x: 0.000241318877153
      y: -0.000388537565087
      z: -0.717105514904
      w: 0.696964469179
  covariance: [0.0, 0.0, 0.0, 0.0, 0.0, 0.0, 0.0, 0.0, 0.0, 0.0, 0.0, 0.0, 0.0, 0.0, 0.0, 0.0, 0.0, 0.0, 0.0, 0.0, 0.0, 0.0, 0.0, 0.0, 0.0, 0.0, 0.0, 0.0, 0.0, 0.0, 0.0, 0.0, 0.0, 0.0, 0.0, 0.0]
twist: 
  twist: 
    linear: 
      x: 0.00404951317414
      y: 0.0052608620477
      z: 0.000369104818044
    angular: 
      x: -0.00160187559888
      y: 0.00152361888057
      z: 0.000539330701153
  covariance: [0.0, 0.0, 0.0, 0.0, 0.0, 0.0, 0.0, 0.0, 0.0, 0.0, 0.0, 0.0, 0.0, 0.0, 0.0, 0.0, 0.0, 0.0, 0.0, 0.0, 0.0, 0.0, 0.0, 0.0, 0.0, 0.0, 0.0, 0.0, 0.0, 0.0, 0.0, 0.0, 0.0, 0.0, 0.0, 0.0]
---
header: 
  seq: 9523
  stamp: 
    secs: 663
    nsecs: 146000000
  frame_id: "world"
child_frame_id: "red/base_link"
pose: 
  pose: 
    position: 
      x: -1.0472772572
      y: 1.08591679922
      z: 2.21028779998
    orientation: 
      x: 0.000235439889585
      y: -0.000382191337915
      z: -0.717101936531
      w: 0.696968156461
  covariance: [0.0, 0.0, 0.0, 0.0, 0.0, 0.0, 0.0, 0.0, 0.0, 0.0, 0.0, 0.0, 0.0, 0.0, 0.0, 0.0, 0.0, 0.0, 0.0, 0.0, 0.0, 0.0, 0.0, 0.0, 0.0, 0.0, 0.0, 0.0, 0.0, 0.0, 0.0, 0.0, 0.0, 0.0, 0.0, 0.0]
twist: 
  twist: 
    linear: 
      x: 0.00401232366666
      y: 0.00508810747437
      z: 0.000305196309817
    angular: 
      x: 0.000336917883343
      y: -0.000775036422159
      z: 0.000497014585284
  covariance: [0.0, 0.0, 0.0, 0.0, 0.0, 0.0, 0.0, 0.0, 0.0, 0.0, 0.0, 0.0, 0.0, 0.0, 0.0, 0.0, 0.0, 0.0, 0.0, 0.0, 0.0, 0.0, 0.0, 0.0, 0.0, 0.0, 0.0, 0.0, 0.0, 0.0, 0.0, 0.0, 0.0, 0.0, 0.0, 0.0]
---
header: 
  seq: 9524
  stamp: 
    secs: 663
    nsecs: 166000000
  frame_id: "world"
child_frame_id: "red/base_link"
pose: 
  pose: 
    position: 
      x: -1.04717962869
      y: 1.08583416542
      z: 2.21029326905
    orientation: 
      x: 0.000244548040465
      y: -0.000391838675188
      z: -0.717098430544
      w: 0.696971755217
  covariance: [0.0, 0.0, 0.0, 0.0, 0.0, 0.0, 0.0, 0.0, 0.0, 0.0, 0.0, 0.0, 0.0, 0.0, 0.0, 0.0, 0.0, 0.0, 0.0, 0.0, 0.0, 0.0, 0.0, 0.0, 0.0, 0.0, 0.0, 0.0, 0.0, 0.0, 0.0, 0.0, 0.0, 0.0, 0.0, 0.0]
twist: 
  twist: 
    linear: 
      x: 0.00397154507328
      y: 0.00491412249374
      z: 0.000222196960254
    angular: 
      x: 0.00185638780235
      y: 0.00126046066718
      z: 0.000503125221119
  covariance: [0.0, 0.0, 0.0, 0.0, 0.0, 0.0, 0.0, 0.0, 0.0, 0.0, 0.0, 0.0, 0.0, 0.0, 0.0, 0.0, 0.0, 0.0, 0.0, 0.0, 0.0, 0.0, 0.0, 0.0, 0.0, 0.0, 0.0, 0.0, 0.0, 0.0, 0.0, 0.0, 0.0, 0.0, 0.0, 0.0]
---
header: 
  seq: 9525
  stamp: 
    secs: 663
    nsecs: 186000000
  frame_id: "world"
child_frame_id: "red/base_link"
pose: 
  pose: 
    position: 
      x: -1.04708553028
      y: 1.08575242492
      z: 2.2102967316
    orientation: 
      x: 0.000280954945772
      y: -0.000383573957028
      z: -0.717094977379
      w: 0.696975298954
  covariance: [0.0, 0.0, 0.0, 0.0, 0.0, 0.0, 0.0, 0.0, 0.0, 0.0, 0.0, 0.0, 0.0, 0.0, 0.0, 0.0, 0.0, 0.0, 0.0, 0.0, 0.0, 0.0, 0.0, 0.0, 0.0, 0.0, 0.0, 0.0, 0.0, 0.0, 0.0, 0.0, 0.0, 0.0, 0.0, 0.0]
twist: 
  twist: 
    linear: 
      x: 0.00393538498951
      y: 0.00473242706829
      z: 0.000140018281662
    angular: 
      x: 0.0016739684233
      y: 0.00479896090289
      z: 0.000466674650207
  covariance: [0.0, 0.0, 0.0, 0.0, 0.0, 0.0, 0.0, 0.0, 0.0, 0.0, 0.0, 0.0, 0.0, 0.0, 0.0, 0.0, 0.0, 0.0, 0.0, 0.0, 0.0, 0.0, 0.0, 0.0, 0.0, 0.0, 0.0, 0.0, 0.0, 0.0, 0.0, 0.0, 0.0, 0.0, 0.0, 0.0]
---
header: 
